{"features":[{"geometry":{"coordinates":[116.598335,40.073334],"type":"Point"},"id":"ZBAA","type":"Feature","properties":{"airportname":"ZBAA","longitude":"1163554","ew":"E","latitude":"400424","sn":"N","altitude":35,"cname":"北京/首都","local":"本地机场","area_flag":"国内","ename":"BEIJING-CAPITAL"}},{"geometry":{"coordinates":[116.39889,39.50083],"type":"Point"},"id":"ZBAD","type":"Feature","properties":{"airportname":"ZBAD","longitude":"1162356","ew":"E","latitude":"393003","sn":"N","altitude":0,"cname":"北京/大兴","local":"区内机场","area_flag":"国内"}},{"geometry":{"coordinates":[106.998886,40.313053],"type":"Point"},"id":"ZBAL","type":"Feature","properties":{"airportname":"ZBAL","airport3id":"AXF","longitude":"1065956","ew":"E","latitude":"401847","sn":"N","cname":"阿拉善左旗","local":"区内机场","area_flag":"国内"}},{"geometry":{"coordinates":[106.998886,40.313053],"type":"Point"},"id":"ZBAR","type":"Feature","properties":{"airportname":"ZBAR","airport3id":"RHT","longitude":"1065956","ew":"E","latitude":"401847","sn":"N","cname":"阿拉善右旗","local":"区内机场","area_flag":"国内"}},{"geometry":{"coordinates":[118.07389,41.122498],"type":"Point"},"id":"ZBCD","type":"Feature","properties":{"airportname":"ZBCD","airport3id":"CDE","longitude":"1180426","ew":"E","latitude":"410721","sn":"N","cname":"承德普宁","local":"区内机场","area_flag":"国内"}},{"geometry":{"coordinates":[118.83945,42.158337],"type":"Point"},"id":"ZBCF","type":"Feature","properties":{"airportname":"ZBCF","longitude":"1185022","ew":"E","latitude":"420930","sn":"N","altitude":618,"cname":"赤峰/玉龙","local":"区内机场","area_flag":"国内","ename":"CHIFENG"}},{"geometry":{"coordinates":[113.12528,36.2475],"type":"Point"},"id":"ZBCZ","type":"Feature","properties":{"airportname":"ZBCZ","longitude":"1130731","ew":"E","latitude":"361451","sn":"N","altitude":923,"cname":"长治/王村","local":"区内机场","area_flag":"国内","ename":"CHANGZHI"}},{"geometry":{"coordinates":[119.06139,39.66639],"type":"Point"},"id":"ZBDH","type":"Feature","properties":{"airportname":"ZBDH","airport3id":"SHP","longitude":"1190341","ew":"E","latitude":"393959","sn":"N","cname":"山海关","local":"区内机场","area_flag":"国内"}},{"geometry":{"coordinates":[109.863335,39.49139],"type":"Point"},"id":"ZBDS","type":"Feature","properties":{"airportname":"ZBDS","longitude":"1095148","ew":"E","latitude":"392929","sn":"N","altitude":1397,"cname":"鄂尔多斯/伊金霍洛","local":"区内机场","area_flag":"国内","ename":"EREDUOSI"}},{"geometry":{"coordinates":[113.48167,40.059998],"type":"Point"},"id":"ZBDT","type":"Feature","properties":{"airportname":"ZBDT","longitude":"1132854","ew":"E","latitude":"400336","sn":"N","altitude":1054,"cname":"大同/云冈","local":"区内机场","area_flag":"国内","ename":"DATONG"}},{"geometry":{"coordinates":[106.998886,40.313053],"type":"Point"},"id":"ZBEN","type":"Feature","properties":{"airportname":"ZBEN","airport3id":"EJN","longitude":"1065956","ew":"E","latitude":"401847","sn":"N","cname":"额济纳旗","local":"区内机场","area_flag":"国内"}},{"geometry":{"coordinates":[112.09139,43.423336],"type":"Point"},"id":"ZBER","type":"Feature","properties":{"airportname":"ZBER","longitude":"1120529","ew":"E","latitude":"432524","sn":"N","altitude":1012,"cname":"二连浩特/赛乌素","local":"区内机场","area_flag":"国内","ename":"ERLIANHOT"}},{"geometry":{"coordinates":[119.91195,47.310555],"type":"Point"},"id":"ZBES","type":"Feature","properties":{"airportname":"ZBES","longitude":"1195443","ew":"E","latitude":"471838","sn":"N","altitude":896,"cname":"阿尔山/伊尔施","local":"区内机场","area_flag":"国内","ename":"AERSHAN"}},{"geometry":{"coordinates":[116.61667,41.25],"type":"Point"},"id":"ZBFN","type":"Feature","properties":{"airportname":"ZBFN","longitude":"1163700","ew":"E","latitude":"411500","sn":"N","local":"区内机场","area_flag":"国内"}},{"geometry":{"coordinates":[116.10139,37.484722],"type":"Point"},"id":"ZBGC","type":"Feature","properties":{"airportname":"ZBGC","longitude":"1160605","ew":"E","latitude":"372905","sn":"N","local":"区内机场","area_flag":"国内"}},{"geometry":{"coordinates":[114.424164,36.524166],"type":"Point"},"id":"ZBHD","type":"Feature","properties":{"airportname":"ZBHD","longitude":"1142527","ew":"E","latitude":"363127","sn":"N","altitude":72,"cname":"邯郸","local":"区内机场","area_flag":"国内","ename":"HANDAN"}},{"geometry":{"coordinates":[111.82444,40.84944],"type":"Point"},"id":"ZBHH","type":"Feature","properties":{"airportname":"ZBHH","longitude":"1114928","ew":"E","latitude":"405058","sn":"N","altitude":1083,"cname":"呼和浩特/白塔","local":"区内机场","area_flag":"国内","ename":"HOHHOT/BAITA"}},{"geometry":{"coordinates":[117.05,38.783333],"type":"Point"},"id":"ZBJH","type":"Feature","properties":{"airportname":"ZBJH","longitude":"1170300","ew":"E","latitude":"384700","sn":"N","local":"区内机场","area_flag":"国内"}},{"geometry":{"coordinates":[111.492775,36.044445],"type":"Point"},"id":"ZBLF","type":"Feature","properties":{"airportname":"ZBLF","airport3id":"LFQ","longitude":"1112934","ew":"E","latitude":"360240","sn":"N","cname":"临汾","local":"区内机场","area_flag":"国内"}},{"geometry":{"coordinates":[111.14166,37.69167],"type":"Point"},"id":"ZBLL","type":"Feature","properties":{"airportname":"ZBLL","airport3id":"LLV","longitude":"1110830","ew":"E","latitude":"374130","sn":"N","cname":"吕梁","local":"区内机场","area_flag":"国内"}},{"geometry":{"coordinates":[117.33305,49.565],"type":"Point"},"id":"ZBMZ","type":"Feature","properties":{"airportname":"ZBMZ","longitude":"1171959","ew":"E","latitude":"493354","sn":"N","altitude":680,"cname":"满洲里/西郊","local":"区内机场","area_flag":"国内","ename":"MANZHOULI/XIJIAO"}},{"geometry":{"coordinates":[116.38583,39.780556],"type":"Point"},"id":"ZBNY","type":"Feature","properties":{"airportname":"ZBNY","longitude":"1162309","ew":"E","latitude":"394650","sn":"N","cname":"南苑","local":"区内机场","area_flag":"国内"}},{"geometry":{"coordinates":[109.996666,40.559723],"type":"Point"},"id":"ZBOW","type":"Feature","properties":{"airportname":"ZBOW","longitude":"1095948","ew":"E","latitude":"403335","sn":"N","altitude":1012,"cname":"包头/东河","local":"区内机场","area_flag":"国内","ename":"BAOTOU"}},{"geometry":{"coordinates":[118.674995,40.9],"type":"Point"},"id":"ZBPQ","type":"Feature","properties":{"airportname":"ZBPQ","longitude":"1184030","ew":"E","latitude":"405400","sn":"N","local":"区内机场","area_flag":"国内"}},{"geometry":{"coordinates":[112.418884,39.33583],"type":"Point"},"id":"ZBPS","type":"Feature","properties":{"airportname":"ZBPS","longitude":"1122508","ew":"E","latitude":"392009","sn":"N","local":"区内机场","area_flag":"国内"}},{"geometry":{"coordinates":[114.69833,38.281666],"type":"Point"},"id":"ZBSJ","type":"Feature","properties":{"airportname":"ZBSJ","longitude":"1144154","ew":"E","latitude":"381654","sn":"N","altitude":71,"cname":"石家庄/正定","local":"区内机场","area_flag":"国内","ename":"SHIJIAZHUANG ZHENGDING"}},{"geometry":{"coordinates":[118.0025,39.7175],"type":"Point"},"id":"ZBSN","type":"Feature","properties":{"airportname":"ZBSN","longitude":"1180009","ew":"E","latitude":"394303","sn":"N","altitude":14,"cname":"唐山/三女河","local":"区内机场","area_flag":"国内","ename":"TANGSHAN"}},{"geometry":{"coordinates":[113.142494,39.716946],"type":"Point"},"id":"ZBTD","type":"Feature","properties":{"airportname":"ZBTD","longitude":"1130833","ew":"E","latitude":"394301","sn":"N","local":"区内机场","area_flag":"国内"}},{"geometry":{"coordinates":[117.683334,39.116665],"type":"Point"},"id":"ZBTG","type":"Feature","properties":{"airportname":"ZBTG","longitude":"1174100","ew":"E","latitude":"390700","sn":"N","cname":"塘沽","local":"区内机场","area_flag":"国内"}},{"geometry":{"coordinates":[117.345,39.123333],"type":"Point"},"id":"ZBTJ","type":"Feature","properties":{"airportname":"ZBTJ","longitude":"1172042","ew":"E","latitude":"390724","sn":"N","altitude":3,"cname":"天津/滨海","local":"区内机场","area_flag":"国内","ename":"TIANJIN BINHAI"}},{"geometry":{"coordinates":[122.19889,43.556667],"type":"Point"},"id":"ZBTL","type":"Feature","properties":{"airportname":"ZBTL","longitude":"1221156","ew":"E","latitude":"433324","sn":"N","altitude":183,"cname":"通辽","local":"区内机场","area_flag":"国内","ename":"TONGLIAO"}},{"geometry":{"coordinates":[116.7,39.816666],"type":"Point"},"id":"ZBTX","type":"Feature","properties":{"airportname":"ZBTX","longitude":"1164200","ew":"E","latitude":"394900","sn":"N","local":"区内机场","area_flag":"国内"}},{"geometry":{"coordinates":[113.07305,41.129997],"type":"Point"},"id":"ZBUC","type":"Feature","properties":{"airportname":"ZBUC","airport3id":"UCB","longitude":"1130423","ew":"E","latitude":"410748","sn":"N","cname":"乌兰察布","local":"区内机场","area_flag":"国内"}},{"geometry":{"coordinates":[106.79889,39.793056],"type":"Point"},"id":"ZBUH","type":"Feature","properties":{"airportname":"ZBUH","longitude":"1064756","ew":"E","latitude":"394735","sn":"N","altitude":1107,"cname":"乌海","local":"区内机场","area_flag":"国内","ename":"WUHAI"}},{"geometry":{"coordinates":[122.00833,46.19389],"type":"Point"},"id":"ZBUL","type":"Feature","properties":{"airportname":"ZBUL","longitude":"1220030","ew":"E","latitude":"461138","sn":"N","altitude":302,"cname":"乌兰浩特/依勒力特","local":"区内机场","area_flag":"国内","ename":"WULANHAOTE"}},{"geometry":{"coordinates":[108.37778,41.69389],"type":"Point"},"id":"ZBUT","type":"Feature","properties":{"airportname":"ZBUT","airport3id":"WZQ","longitude":"1082240","ew":"E","latitude":"414138","sn":"N","cname":"乌拉特中旗","local":"区内机场","area_flag":"国内"}},{"geometry":{"coordinates":[111.75,39.05],"type":"Point"},"id":"ZBWZ","type":"Feature","properties":{"airportname":"ZBWZ","longitude":"1114500","ew":"E","latitude":"390300","sn":"N","local":"区内机场","area_flag":"国内"}},{"geometry":{"coordinates":[116.085556,39.7175],"type":"Point"},"id":"ZBXG","type":"Feature","properties":{"airportname":"ZBXG","longitude":"1160508","ew":"E","latitude":"394303","sn":"N","cname":"良乡","local":"区内机场","area_flag":"国内"}},{"geometry":{"coordinates":[115.960556,43.91278],"type":"Point"},"id":"ZBXH","type":"Feature","properties":{"airportname":"ZBXH","longitude":"1155738","ew":"E","latitude":"435446","sn":"N","altitude":1015,"cname":"锡林浩特","local":"区内机场","area_flag":"国内","ename":"XILINHAOTE"}},{"geometry":{"coordinates":[116.26667,39.966667],"type":"Point"},"id":"ZBXJ","type":"Feature","properties":{"airportname":"ZBXJ","longitude":"1161600","ew":"E","latitude":"395800","sn":"N","local":"区内机场","area_flag":"国内"}},{"geometry":{"coordinates":[113.601944,38.976944],"type":"Point"},"id":"ZBXZ","type":"Feature","properties":{"airportname":"ZBXZ","airport3id":"WTU","longitude":"1133607","ew":"E","latitude":"385837","sn":"N","cname":"五台山","local":"区内机场","area_flag":"国内"}},{"geometry":{"coordinates":[111.03389,35.116943],"type":"Point"},"id":"ZBYC","type":"Feature","properties":{"airportname":"ZBYC","longitude":"1110202","ew":"E","latitude":"350701","sn":"N","altitude":381,"cname":"运城/张孝","local":"区内机场","area_flag":"国内","ename":"YUNCHENG"}},{"geometry":{"coordinates":[112.630005,37.748333],"type":"Point"},"id":"ZBYN","type":"Feature","properties":{"airportname":"ZBYN","longitude":"1123748","ew":"E","latitude":"374454","sn":"N","altitude":786,"cname":"太原/武宿","local":"区内机场","area_flag":"国内","ename":"TAIYUAN-WUSU"}},{"geometry":{"coordinates":[116.10833,40.5],"type":"Point"},"id":"ZBYQ","type":"Feature","properties":{"airportname":"ZBYQ","longitude":"1160630","ew":"E","latitude":"403000","sn":"N","local":"区内机场","area_flag":"国内"}},{"geometry":{"coordinates":[115.29083,39.152225],"type":"Point"},"id":"ZBYX","type":"Feature","properties":{"airportname":"ZBYX","longitude":"1151727","ew":"E","latitude":"390908","sn":"N","local":"区内机场","area_flag":"国内"}},{"geometry":{"coordinates":[116.378334,40.266388],"type":"Point"},"id":"ZBYY","type":"Feature","properties":{"airportname":"ZBYY","longitude":"1162242","ew":"E","latitude":"401559","sn":"N","cname":"沙河","local":"区内机场","area_flag":"国内"}},{"geometry":{"coordinates":[107.73944,40.926945],"type":"Point"},"id":"ZBYZ","type":"Feature","properties":{"airportname":"ZBYZ","longitude":"1074422","ew":"E","latitude":"405537","sn":"N","cname":"巴彦淖尔","local":"区内机场","area_flag":"国内"}},{"geometry":{"coordinates":[114.74944,38.082775],"type":"Point"},"id":"ZBZD","type":"Feature","properties":{"airportname":"ZBZD","longitude":"1144458","ew":"E","latitude":"380458","sn":"N","local":"区内机场","area_flag":"国内"}},{"geometry":{"coordinates":[117.88167,40.101665],"type":"Point"},"id":"ZBZH","type":"Feature","properties":{"airportname":"ZBZH","longitude":"1175254","ew":"E","latitude":"400606","sn":"N","local":"区内机场","area_flag":"国内"}},{"geometry":{"coordinates":[114.924995,40.74167],"type":"Point"},"id":"ZBZJ","type":"Feature","properties":{"airportname":"ZBZJ","airport3id":"ZQZ","longitude":"1145530","ew":"E","latitude":"404430","sn":"N","cname":"张家口","local":"区内机场","area_flag":"国内"}},{"geometry":{"coordinates":[113.04972,42.698334],"type":"Point"},"id":"ZBZR","type":"Feature","properties":{"airportname":"ZBZR","longitude":"1130259","ew":"E","latitude":"424154","sn":"N","cname":"朱日和","local":"区内机场","area_flag":"国内"}},{"geometry":{"coordinates":[115.98333,39.383335],"type":"Point"},"id":"ZBZX","type":"Feature","properties":{"airportname":"ZBZX","longitude":"1155900","ew":"E","latitude":"392300","sn":"N","local":"区内机场","area_flag":"国内"}},{"geometry":{"coordinates":[113.84167,34.518333],"type":"Point"},"id":"ZHCC","type":"Feature","properties":{"airportname":"ZHCC","longitude":"1135030","ew":"E","latitude":"343106","sn":"N","altitude":150,"cname":"郑州/新郑","local":"区内机场","area_flag":"国内","ename":"ZHENGZHOU XINSHENG"}},{"geometry":{"coordinates":[112.38722,34.74111],"type":"Point"},"id":"ZHLY","type":"Feature","properties":{"airportname":"ZHLY","longitude":"1122314","ew":"E","latitude":"344428","sn":"N","altitude":264,"cname":"洛阳","local":"区内机场","area_flag":"国内","ename":"LUOYANG"}},{"geometry":{"coordinates":[112.61305,32.979168],"type":"Point"},"id":"ZHNY","type":"Feature","properties":{"airportname":"ZHNY","longitude":"1123647","ew":"E","latitude":"325845","sn":"N","altitude":125,"cname":"南阳/姜营","local":"区内机场","area_flag":"国内","ename":"NANYANG"}},{"geometry":{"coordinates":[114.077774,32.54139],"type":"Point"},"id":"ZHXY","type":"Feature","properties":{"airportname":"ZHXY","airport3id":"XAI","longitude":"1140440","ew":"E","latitude":"323229","sn":"N","cname":"信阳","local":"区内机场","area_flag":"国内"}},{"geometry":{"coordinates":[118.78861,37.50861],"type":"Point"},"id":"ZSDY","type":"Feature","properties":{"airportname":"ZSDY","longitude":"1184719","ew":"E","latitude":"373031","sn":"N","altitude":5,"cname":"东营","local":"区内机场","area_flag":"国内","ename":"DONGYIN"}},{"geometry":{"coordinates":[115.733604,32.881943],"type":"Point"},"id":"ZSFY","type":"Feature","properties":{"airportname":"ZSFY","longitude":"1154401","ew":"E","latitude":"325255","sn":"N","altitude":32,"cname":"阜阳","local":"区内机场","area_flag":"国内","ename":"FUYANG"}},{"geometry":{"coordinates":[116.34583,35.292778],"type":"Point"},"id":"ZSJG","type":"Feature","properties":{"airportname":"ZSJG","longitude":"1162045","ew":"E","latitude":"351734","sn":"N","altitude":38,"cname":"济宁/曲阜","local":"区内机场","area_flag":"国内","ename":"JINING"}},{"geometry":{"coordinates":[117.21667,36.855],"type":"Point"},"id":"ZSJN","type":"Feature","properties":{"airportname":"ZSJN","longitude":"1171300","ew":"E","latitude":"365118","sn":"N","altitude":23,"cname":"济南/遥墙","local":"区内机场","area_flag":"国内","ename":"JINAN/YAOQIANG"}},{"geometry":{"coordinates":[118.41111,35.04889],"type":"Point"},"id":"ZSLY","type":"Feature","properties":{"airportname":"ZSLY","longitude":"1182440","ew":"E","latitude":"350256","sn":"N","altitude":66,"cname":"临沂/沭埠岭","local":"区内机场","area_flag":"国内","ename":"LINYI"}},{"geometry":{"coordinates":[119.11778,36.646667],"type":"Point"},"id":"ZSWF","type":"Feature","properties":{"airportname":"ZSWF","longitude":"1190704","ew":"E","latitude":"363848","sn":"N","altitude":47,"cname":"潍坊","local":"区内机场","area_flag":"国内","ename":"WEIFANG"}}],"type":"FeatureCollection"}